[
    { 
        "name_en": "Casablanca-Settat",
        "code": "MA06", 
        "name_ar": "\u0627\u0644\u062f\u0627\u0631 \u0627\u0644\u0628\u064a\u0636\u0627\u0621 - \u0633\u0637\u0627\u062a", 
        "latitude": "33.5883102", 
        "longitude": "-7.6113801",
        "counts": "501" 
    },
    { 
        "name_en": "F\u00e8s-Mekn\u00e8s", 
        "code": "MA03",
        "name_ar": "\u0641\u0627\u0633 - \u0645\u0643\u0646\u0627\u0633",  
        "latitude": "34.0625",
        "longitude": "-4.7278",
        "counts": "422"
    }, 
    {
        "name_en": "Rabat-Sal\u00e9-K\u00e9nitra", 
        "code": "MA04", 
        "name_ar": "\u0627\u0644\u0631\u0628\u0627\u0637 - \u0633\u0644\u0627 - \u0627\u0644\u0642\u0646\u064a\u0637\u0631\u0629",
        "latitude": "34.1728",
        "longitude": "-6.2376",
        "counts": "331"
    },  
    {
        "name_en": "Marrakech-Safi",
        "code": "MA07",
        "name_ar": "\u0645\u0631\u0627\u0643\u0634 - \u0623\u0633\u0641\u064a", 
        "latitude": "31.7331", 
        "longitude": "-8.1339",
        "counts": "291"
    },
    {   
        "name_en": "Tanger-T\u00e9touan-Al Hoce\u00efma", 
        "code": "MA01", 
        "name_ar": "\u0637\u0646\u062c\u0629 - \u062a\u0637\u0648\u0627\u0646 - \u0627\u0644\u062d\u0633\u064a\u0645\u0629",
        "latitude": "35.50926", 
        "longitude": "-5.4037",
        "counts": "252"
    }, 
    {
        "name_en": "l'Oriental", 
        "code": "MA02",
        "name_ar": "\u0627\u0644\u062c\u0647\u0629 \u0627\u0644\u0634\u0631\u0642\u064a\u0629",
        "latitude": "33.4199",
        "longitude": "-2.1450",   
        "counts": "89"
    },
    { 
        "name_en": "Souss-Massa", 
        "code": "MA09",
        "name_ar": "\u0633\u0648\u0633 - \u0645\u0627\u0633\u0629", 
        "latitude": "30.2751", 
        "longitude": "-8.1339",
        "counts": "231"  
    },  
    {
        "name_en": "B\u00e9ni Mellal-Kh\u00e9nifra",
        "code": "MA05",
        "name_ar": "\u0628\u0646\u064a \u0645\u0644\u0627\u0644 - \u062e\u0646\u064a\u0641\u0631\u0629", 
        "latitude": "32.5719",
        "longitude": "-6.0679", 
        "counts": "36" 
    },
    { 
        "name_en": "Dr\u00e2a-Tafilalet",
        "code": "MA08", 
        "name_ar": "\u062f\u0631\u0639\u0629 \u062a\u0627\u0641\u064a\u0644\u0627\u0644\u062a",
        "latitude": "31.1500",
        "longitude": "-5.3940",
        "counts": "0"
    },
    {
        "name_en": "Guelmim-Oued Noun", 
        "code": "MA10",
        "name_ar": "\u0643\u0644\u0645\u064a\u0645 - \u0648\u0627\u062f \u0646\u0648\u0646", 
        "latitude": "28.4844",  
        "longitude": "-10.0807",
        "counts": "84"  
    },
    {
        "name_en": "La\u00e2youne-Sakia El Hamra",
        "code": "MA11",
        "name_ar": "\u0627\u0644\u0639\u064a\u0648\u0646 - \u0627\u0644\u0633\u0627\u0642\u064a\u0629 \u0627\u0644\u062d\u0645\u0631\u0627\u0621", 
        "latitude": "27.8683", 
        "longitude": "-11.9805",
        "counts": "70"
    },
    { 
        "name_en": "Dakhla-Oued Ed-Dahab", 
        "code": "MA12",
        "name_ar": "\u0627\u0644\u062f\u0627\u062e\u0644\u0629 - \u0648\u0627\u062f\u064a \u0627\u0644\u0630\u0647\u0628",
        "latitude": "22.7338", 
        "longitude": "-14.2861", 
        "counts": "0" 
    }
] 